original_dmo,original_coordinates,original_latitude,original_longitude,distance,formatted,lat,lon,name,housenumber,street,postcode,district,suburb,city,county,county_code,state,state_code,country,country_code,attribution,attribution_license,attribution_url
A.T.L.del Cuneese valli alpine e città d’arte,"44.39169846566252, 7.545363314024803",44.3916984656625,7.5453633140248,2.977547734743969,"ATL del Cuneese, Via Carlo Pascal, 7, 12100 Cuneo CN, Italia",44.3917149,7.5453929,ATL del Cuneese,7,Via Carlo Pascal,12100,Comune di Cuneo,Centro Storico,Cuneo,Cuneo,CN,Piemonte,PIE,Italia,it,© OpenStreetMap contributors,Open Database License,https://www.openstreetmap.org/copyright
Agenzia Campania Turismo,"40.85792732321478, 14.283900823046022",40.8579273232148,14.283900823046,3.775366799853573,"E7, Isola E, 80143 Napoli NA, Italia",40.857900400000005,14.284199706479903,E7,,Isola E,80143,Comune di Napoli,Municipalità 4,Napoli,Napoli,NA,Campania,CAM,Italia,it,© OpenStreetMap contributors,Open Database License,https://www.openstreetmap.org/copyright
Agenzia Turistica Locale della Provincia di Novara,"45.44431, 8.61748",45.44431,8.61748,0,"Castello Visconteo - Sforzesco di Novara, Largo Donatori di Sangue, 28100 Novara NO, Italia",45.444413350000005,8.61729129805997,Castello Visconteo - Sforzesco di Novara,,Largo Donatori di Sangue,28100,,Sacro Cuore,Novara,Novara,NO,Piemonte,PIE,Italia,it,© OpenStreetMap contributors,Open Database License,https://www.openstreetmap.org/copyright
Agenzia Turistica Locale Distretto Turistico dei Laghi,"45.883634304977804, 8.541859126098887",45.8836343049778,8.54185912609889,0.3421991942070398,"Distretto Turistico dei Laghi, Monti e Valli d'Ossola, Corso Italia, 26, 28838 Binda VB, Italia",45.8836332,8.541855,"Distretto Turistico dei Laghi, Monti e Valli d'Ossola",26,Corso Italia,28838,Comune di Stresa,,Binda,Verbano-Cusio-Ossola,VB,Piemonte,PIE,Italia,it,© OpenStreetMap contributors,Open Database License,https://www.openstreetmap.org/copyright
Alpe di Siusi Marketing,"46.517290362022344, 11.502325727112046",46.5172903620223,11.502325727112,2.4466287429845206,"39050 Fiè allo Sciliar BZ, Italia",46.5173848,11.5026421,,,,39050,,,Fiè allo Sciliar,Bolzano,BZ,Trentino-Alto Adige,TRE,Italia,it,© OpenStreetMap contributors,Open Database License,https://www.openstreetmap.org/copyright
Alta Val Venosta,"46.69075254429379, 10.543157252120766",46.6907525442938,10.5431572521208,0,"Via S. Benedetto, 1, 39024 Laudes BZ, Italia",46.6907511,10.543110801451764,,1,Via S. Benedetto,39024,,,Laudes,Bolzano,BZ,Trentino-Alto Adige,TRE,Italia,it,© OpenStreetMap contributors,Open Database License,https://www.openstreetmap.org/copyright
Amalfi Coast Convention Bureau,"40.65009667259217, 14.611794205025936",40.6500966725922,14.6117942050259,15.169379823998849,"Via Roma, 16, 84010 Scala SA, Italia",40.650066,14.611619,,16,Via Roma,84010,Comune di Scala,,Scala,Salerno,SA,Campania,CAM,Italia,it,© OpenAddresses contributors,BSD-3-Clause License,
Ancona Tourism,"43.616777711773494, 13.518884797225343",43.6167777117735,13.5188847972253,0,"Palazzo del Popolo (Municipio), Largo Ventiquattro Maggio, 60122 Ancona AN, Italia",43.61672995,13.518887556987544,Palazzo del Popolo (Municipio),,Largo Ventiquattro Maggio,60122,,Borgo Rodi,Ancona,Ancona,AN,Marche,MAR,Italia,it,© OpenStreetMap contributors,Open Database License,https://www.openstreetmap.org/copyright
APT Alpe Cimbra,"45.916460063295425, 11.170351774252449",45.9164600632954,11.1703517742524,0,"Magnifica Comunità di Folgaria, Via Roma, 60, 38064 Folgaria TN, Italia",45.91637745,11.170366600000001,Magnifica Comunità di Folgaria,60,Via Roma,38064,,,Folgaria,Provincia di Trento,,Trentino-Alto Adige,TRE,Italia,it,© OpenStreetMap contributors,Open Database License,https://www.openstreetmap.org/copyright
APT Basilicata,"40.63197880000011, 15.788682570552277",40.6319788000001,15.7886825705523,20.355840678375742,"Azienda di Promozione Turistica di Basilicata, Via del Gallitello, 89, 85100 Potenza PZ, Italia",40.631903,15.788463,Azienda di Promozione Turistica di Basilicata,89,Via del Gallitello,85100,Comune di Potenza,Gallitello,Potenza,Potenza,PZ,Basilicata,BAS,Italia,it,© OpenStreetMap contributors,Open Database License,https://www.openstreetmap.org/copyright
APT Livigno,"46.52276257723174, 10.124413058893946",46.5227625772317,10.1244130588939,0,"Plaza Plachéda, Via Saroch, 23041 Livigno SO, Italia",46.5227936,10.12411335735424,Plaza Plachéda,,Via Saroch,23041,,,Livigno,Sondrio,SO,Lombardia,LOM,Italia,it,© OpenStreetMap contributors,Open Database License,https://www.openstreetmap.org/copyright
ApT San Martino di Castrozza Primiero e Vanoi Soc. Coop.,"46.17426048861933, 11.828583895210173",46.1742604886193,11.8285838952102,0,"SS50, 38054 Fiera di Primiero TN, Italia",46.174486900000005,11.828084652083328,Fiera di Primiero,,SS50,38054,Pieve,,Fiera di Primiero,Provincia di Trento,,Trentino-Alto Adige,TRE,Italia,it,© OpenStreetMap contributors,Open Database License,https://www.openstreetmap.org/copyright
APT Servizi Emilia-Romagna,"44.50762942614331, 11.364443648623734",44.5076294261433,11.3644436486237,1.6018858979466786,"Centro IFOA, Viale Aldo Moro, 62, 40127 Bologna BO, Italia",44.5076356,11.3644619,Centro IFOA,62,Viale Aldo Moro,40127,Fiera District,San Donato-San Vitale,Bologna,Bologna,BO,Emilia-Romagna,EMI,Italia,it,© OpenStreetMap contributors,Open Database License,https://www.openstreetmap.org/copyright
APT Val di Fassa,"46.476259061779224, 11.738653729446423",46.4762590617792,11.7386537294464,11.922885794207797,"Strèda Roma, 28, 38031 Campitello di Fassa TN, Italia",46.4762064,11.7385181,,28,Strèda Roma,38031,Comune di Campitello di Fassa,,Campitello di Fassa,Provincia di Trento,,Trentino-Alto Adige,TRE,Italia,it,© OpenStreetMap contributors,Open Database License,https://www.openstreetmap.org/copyright
"APT Valli di Sole, Peio e Rabbi Scpa","46.354224679121586, 10.91476989728586",46.3542246791216,10.9147698972859,5.902039457217348,"Azienda per il Turismo Val di Sole, Via Guglielmo Marconi, 38027 Malé TN, Italia",46.3541486,10.914835667034701,Azienda per il Turismo Val di Sole,,Via Guglielmo Marconi,38027,Comune di Malè,,Malé,Provincia di Trento,,Trentino-Alto Adige,TRE,Italia,it,© OpenStreetMap contributors,Open Database License,https://www.openstreetmap.org/copyright
APT Valsugana Lagorai,"46.008894227438354, 11.306388139649933",46.0088942274384,11.3063881396499,6.616732794531227,"Cassa Rurale di Levico, Via Gerolamo Avancini, 38056 Levico Terme TN, Italia",46.0088423,11.3063463,Cassa Rurale di Levico,,Via Gerolamo Avancini,38056,Comune di Levico Terme,,Levico Terme,Provincia di Trento,,Trentino-Alto Adige,TRE,Italia,it,© OpenStreetMap contributors,Open Database License,https://www.openstreetmap.org/copyright
ARIA S.p.A. Azienda Regionale per l'Innovazione e gli Acquisti,"45.491237382115656, 9.194190842404653",45.4912373821157,9.19419084240465,13.34027138840498,"Via Torquato Taramelli, 26, 20124 Milano MI, Italia",45.4911448,9.194082,,26,Via Torquato Taramelli,20124,,Municipio 2,Milano,Milano,MI,Lombardia,LOM,Italia,it,© OpenStreetMap contributors,Open Database License,https://www.openstreetmap.org/copyright
Associazione Distretto Turistico Costa d'Amalfi,"40.65151617215196, 14.642547441894745",40.651516172152,14.6425474418947,16.988980920984964,"Corso Regina, 134, 84010 Maiori SA, Italia",40.651474,14.642741,,134,Corso Regina,84010,Comune di Maiori,,Maiori,Salerno,SA,Campania,CAM,Italia,it,© OpenAddresses contributors,BSD-3-Clause License,
ATL Alexala,"44.91305589779972, 8.615171894906114",44.9130558977997,8.61517189490611,0,"Palazzo Rosso - Comune di Alessandria, 1, 15121 Alessandria AL, Italia",44.9127177,8.615512569216751,Palazzo Rosso - Comune di Alessandria,1,,15121,,,Alessandria,Alessandria,AL,Piemonte,PIE,Italia,it,© OpenStreetMap contributors,Open Database License,https://www.openstreetmap.org/copyright
ATL Biella Valsesia Vercelli,"45.56247071253945, 8.056429418723024",45.5624707125395,8.05642941872302,24.290172540007323,"Via Alfonso Lamarmora, 3, 13900 Biella BI, Italia",45.56259,8.0566908,,3,Via Alfonso Lamarmora,13900,Comune di Biella,Vernato,Biella,Biella,BI,Piemonte,PIE,Italia,it,© OpenStreetMap contributors,Open Database License,https://www.openstreetmap.org/copyright
Azienda Autonoma di Soggiorno e Turismo Termoli,"42.00089092596429, 14.993315835462104",42.0008909259643,14.9933158354621,2.5226110511132718,"Piazza Garibaldi, 86039 Termoli CB, Italia",42.0007888,14.9933865,Piazza Garibaldi,,Piazza Garibaldi,86039,,,Termoli,Campobasso,CB,Molise,MOL,Italia,it,© OpenStreetMap contributors,Open Database License,https://www.openstreetmap.org/copyright
Azienda di soggiorno di Merano,"46.6706144411704, 11.162084897301211",46.6706144411704,11.1620848973012,1.9764791062365132,"Freiheitsstrasse, 43/A, 39012 Merano BZ, Italia",46.6706,11.1621,,43/A,Freiheitsstrasse,39012,Comune di Merano,,Merano,Bolzano,BZ,Trentino-Alto Adige/Sudtirol,,Italia,it,© OpenAddresses contributors,BSD-3-Clause License,
Azienda di soggiorno e turismo di Bolzano,"46.49527756501183, 11.354678097292682",46.4952775650118,11.3546780972927,0,"Camera di Commercio, Via Alto Adige, 60, 39100 Bolzano BZ, Italia",46.49545845,11.354812141315538,Camera di Commercio,60,Via Alto Adige,39100,,Centro Storico,Bolzano,Bolzano,BZ,Trentino-Alto Adige,TRE,Italia,it,© OpenStreetMap contributors,Open Database License,https://www.openstreetmap.org/copyright
Azienda per il Turismo Dolomiti Paganella SB,"46.163762879016026, 11.003218627539523",46.163762879016,11.0032186275395,0.8697491176205276,"Guardia Medica e Punto Prelievi, Piazzale Paganella, 3, 38010 Andalo TN, Italia",46.16377,11.0032233,Guardia Medica e Punto Prelievi,3,Piazzale Paganella,38010,Andalo,,Andalo,Provincia di Trento,,Trentino-Alto Adige,TRE,Italia,it,© OpenStreetMap contributors,Open Database License,https://www.openstreetmap.org/copyright
Azienda per il Turismo Val di Non,"46.43895624729183, 11.137399363319803",46.4389562472918,11.1373993633198,23.850963387952934,"Via Roma, 18, 38013 Fondo Trento, Italia",46.438812,11.137169,,18,Via Roma,38013,Fondo,,Fondo,Trento,TN,Trentino-Alto Adige/Sudtirol,,Italia,it,© OpenAddresses contributors,BSD-3-Clause License,
Bari Convention Bureau,"41.11884712448882, 16.87111539700521",41.1188471244888,16.8711153970052,7.853645217707986,"Piazza Aldo Moro, 29, 70122 Bari BA, Italia",41.118785,16.87116,,29,Piazza Aldo Moro,70122,Comune di Bari,,Bari,Bari,BA,Puglia,PUG,Italia,it,© OpenAddresses contributors,BSD-3-Clause License,
Bibione e San Michele al Tagliamento,"45.76389726372548, 12.994962654981421",45.7638972637255,12.9949626549814,0,"Municipio di San Michele al Tagliamento, Corso del Popolo, 2, 30028 San Michele al Tagliamento VE, Italia",45.76402935,12.994787803309546,Municipio di San Michele al Tagliamento,2,Corso del Popolo,30028,,,San Michele al Tagliamento,Venezia,VE,Veneto,VEN,Italia,it,© OpenStreetMap contributors,Open Database License,https://www.openstreetmap.org/copyright
Bologna Welcome,"44.49398956306286, 11.343175372368988",44.4939895630629,11.343175372369,2.032632689353199,"Salone della Podestà, Piazza Maggiore, 40121 Bologna BO, Italia",44.49408445,11.343223527319587,Salone della Podestà,,Piazza Maggiore,40121,Quadrilatero,Santo Stefano,Bologna,Bologna,BO,Emilia-Romagna,EMI,Italia,it,© OpenStreetMap contributors,Open Database License,https://www.openstreetmap.org/copyright
Borghi Etruschi ETS,"41.9981504793392, 12.100283490915343",41.9981504793392,12.1002834909153,20.06072071427491,"Piazza Dei Tarquini, 8, 00052 Cerveteri Roma, Italia",41.998296,12.10014,,8,Piazza Dei Tarquini,00052,Comune di Cerveteri,,Cerveteri,Roma,RM,Lazio,LAZ,Italia,it,© OpenAddresses contributors,BSD-3-Clause License,
Budoni welcome,"40.70885800356787, 9.699446372180134",40.7088580035679,9.69944637218013,9.948037070111523,"Via Nazionale, 144, 08020 Limpiddu Gallura Nord-Est Sardegna, Italia",40.7087919,9.6995259,,144,Via Nazionale,08020,Comune di Budoni,,Limpiddu,Gallura Nord-Est Sardegna,,Sardegna,SAR,Italia,it,© OpenStreetMap contributors,Open Database License,https://www.openstreetmap.org/copyright
Cammino del perdono,"42.36270927918666, 13.384045997099545",42.3627092791867,13.3840459970995,5.073453383625934,"Chiesa di San Bernardino in Piazza d'Armi, Via Raffaele Paolucci, 67100 L'Aquila AQ, Italia",42.362816949999996,13.383809882329851,Chiesa di San Bernardino in Piazza d'Armi,,Via Raffaele Paolucci,67100,Santa Barbara,Pile,L'Aquila,L'Aquila,AQ,Abruzzo,ABR,Italia,it,© OpenStreetMap contributors,Open Database License,https://www.openstreetmap.org/copyright
Cavallino Treporti,"45.453740388063906, 12.453802310735561",45.4537403880639,12.4538023107356,0,"Comune di Cavallino-Treporti, Piazza Papa Giovanni Paolo II, 1, 30013 Ca' Savio VE, Italia",45.45370200000001,12.453823214187054,Comune di Cavallino-Treporti,1,Piazza Papa Giovanni Paolo II,30013,,,Ca' Savio,Venezia,VE,Veneto,VEN,Italia,it,© OpenStreetMap contributors,Open Database License,https://www.openstreetmap.org/copyright
Città d'arte e ville venete del territorio trevigiano,"45.664349875028456, 12.245817426142006",45.6643498750285,12.245817426142,0.8555415333757695,"Corso del Popolo, 50, 31100 Treviso TV, Italia",45.6643422,12.2458182,,50,Corso del Popolo,31100,Comune di Treviso,San Zeno,Treviso,Treviso,TV,Veneto,VEN,Italia,it,© OpenStreetMap contributors,Open Database License,https://www.openstreetmap.org/copyright
Comune Arzachena,"41.07928927140648, 9.388218186231336",41.0792892714065,9.38821818623134,12.626870920701972,"Piazza Antonio Segni, 2, 07021 Arzachena Gallura Nord-Est Sardegna, Italia",41.0791911,9.3882939,,2,Piazza Antonio Segni,07021,Comune di Arzachena,,Arzachena,Gallura Nord-Est Sardegna,,Sardegna,SAR,Italia,it,© OpenStreetMap contributors,Open Database License,https://www.openstreetmap.org/copyright
Comune Castiglione della Pescaia,"42.76939585512188, 10.885612339446478",42.7693958551219,10.8856123394465,7.955200124073367,"La Terrazza di Castiglione, Via Santa Maria, 58043 Castiglione della Pescaia GR, Italia",42.7694625,10.8855769,La Terrazza di Castiglione,,Via Santa Maria,58043,Comune di Castiglione della Pescaia,,Castiglione della Pescaia,Grosseto,GR,Toscana,TOS,Italia,it,© OpenStreetMap contributors,Open Database License,https://www.openstreetmap.org/copyright
Comune Castiglione della Pescaia,"42.76939585512188, 10.885612339446478",42.7693958551219,10.8856123394465,7.955200124073367,"La Terrazza di Castiglione, Via Santa Maria, 58043 Castiglione della Pescaia GR, Italia",42.7694625,10.8855769,La Terrazza di Castiglione,,Via Santa Maria,58043,Comune di Castiglione della Pescaia,,Castiglione della Pescaia,Grosseto,GR,Toscana,TOS,Italia,it,© OpenStreetMap contributors,Open Database License,https://www.openstreetmap.org/copyright
Comune Catanzaro,"38.904971130792994, 16.595316098778063",38.904971130793,16.5953160987781,0,"Comune di Catanzaro, Via Tripoli, 88100 Catanzaro CZ, Italia",38.90500435,16.595419701703086,Comune di Catanzaro,,Via Tripoli,88100,,Siano,Catanzaro,Catanzaro,CZ,Calabria,CAL,Italia,it,© OpenStreetMap contributors,Open Database License,https://www.openstreetmap.org/copyright
Comune di Assisi,"43.070823679150244, 12.615038926039635",43.0708236791502,12.6150389260396,0,"Palazzo dei Priori, Via dell'Arco dei Priori, 06081 Assisi PG, Italia",43.0709619,12.614849636406074,Palazzo dei Priori,,Via dell'Arco dei Priori,06081,,,Assisi,Perugia,PG,Umbria,UMB,Italia,it,© OpenStreetMap contributors,Open Database License,https://www.openstreetmap.org/copyright
Comune di Bari,"41.12577039760466, 16.86774212588019",41.1257703976047,16.8677421258802,0,"Palazzo di Città, Corso Vittorio Emanuele II, 84, 70122 Bari BA, Italia",41.1255176,16.867880996739864,Palazzo di Città,84,Corso Vittorio Emanuele II,70122,,Murat,Bari,Bari,BA,Puglia,PUG,Italia,it,© OpenStreetMap contributors,Open Database License,https://www.openstreetmap.org/copyright
Comune di Cagliari - Ufficio Turismo,"39.21531463519198, 9.1102936821267",39.215314635192,9.1102936821267,0,"Comune di Cagliari, Via Giovanni Maria Angioy, 09124 Cagliari CA, Italia",39.21534035,9.110268245557148,Comune di Cagliari,,Via Giovanni Maria Angioy,09124,,Stampace,Cagliari,Cagliari,CA,Sardegna,SAR,Italia,it,© OpenStreetMap contributors,Open Database License,https://www.openstreetmap.org/copyright
Comune di Genova,"44.411878829079036, 8.933118417298504",44.411878829079,8.9331184172985,0,"Palazzo Albini, Galleria Giuseppe Garibaldi, 16124 Genova GE, Italia",44.4120947,8.933220552255477,Palazzo Albini,,Galleria Giuseppe Garibaldi,16124,,Maddalena,Genova,Genova,GE,Liguria,LIG,Italia,it,© OpenStreetMap contributors,Open Database License,https://www.openstreetmap.org/copyright
Comune di Grado,"45.67520837910399, 13.386525026088938",45.675208379104,13.3865250260889,0,"Municipio, Piazza Biagio Marin, 4, 34073 Grado Gorizia, Italia",45.6752103,13.386509423857287,Municipio,4,Piazza Biagio Marin,34073,,,Grado,Gorizia,GO,Friuli-Venezia Giulia,,Italia,it,© OpenStreetMap contributors,Open Database License,https://www.openstreetmap.org/copyright
Comune di Modena,"44.64590804641943, 10.926228854875873",44.6459080464194,10.9262288548759,0,"Palazzo Comunale, Via Castellaro, 41121 Modena MO, Italia",44.6459839,10.926397721263942,Palazzo Comunale,,Via Castellaro,41121,Quartiere Saliceto,Centro Storico,Modena,Modena,MO,Emilia-Romagna,EMI,Italia,it,© OpenStreetMap contributors,Open Database License,https://www.openstreetmap.org/copyright
Comune di Montecatini Terme,"43.884149577315675, 10.772753768333247",43.8841495773157,10.7727537683332,0,"Municipio, Viale Giuseppe Verdi, 51016 Montecatini Terme PT, Italia",43.88403635,10.772827409650931,Municipio,,Viale Giuseppe Verdi,51016,,,Montecatini Terme,Pistoia,PT,Toscana,TOS,Italia,it,© OpenStreetMap contributors,Open Database License,https://www.openstreetmap.org/copyright
Comune di Orbetello,"42.437408179186534, 11.209761654850801",42.4374081791865,11.2097616548508,0,"Municipio, Piazza del Plebiscito, 1, 58015 Orbetello GR, Italia",42.4374303,11.209825346178691,Municipio,1,Piazza del Plebiscito,58015,,,Orbetello,Grosseto,GR,Toscana,TOS,Italia,it,© OpenStreetMap contributors,Open Database License,https://www.openstreetmap.org/copyright
Comune di Sirmione,"45.46324227850185, 10.609103197243092",45.4632422785019,10.6091031972431,0,"Comune - Municipio Sirmione, Piazza Virgiliio, 52, 25019 Sirmione BS, Italia",45.4632323,10.609130657644705,Comune - Municipio Sirmione,52,Piazza Virgiliio,25019,,,Sirmione,Brescia,BS,Lombardia,LOM,Italia,it,© OpenStreetMap contributors,Open Database License,https://www.openstreetmap.org/copyright
Comune L'Aquila,"42.35072920646718, 13.400071598418792",42.3507292064672,13.4000715984188,0,"Palazzo Fibbioni, Via San Bernardino, 67100 L'Aquila AQ, Italia",42.3506911,13.40031948339895,Palazzo Fibbioni,,Via San Bernardino,67100,Quarto di Santa Maria,Torretta,L'Aquila,L'Aquila,AQ,Abruzzo,ABR,Italia,it,© OpenStreetMap contributors,Open Database License,https://www.openstreetmap.org/copyright
Comune Napoli,"40.84030656257663, 14.250475597031953",40.8403065625766,14.250475597032,0,"Palazzo San Giacomo (Municipio), Piazza Municipio, 22, 80133 Napoli NA, Italia",40.8402643,14.25009426338531,Palazzo San Giacomo (Municipio),22,Piazza Municipio,80133,,San Ferdinando,Napoli,Napoli,NA,Campania,CAM,Italia,it,© OpenStreetMap contributors,Open Database License,https://www.openstreetmap.org/copyright
Comune Perugia,"43.11162758163601, 12.38861949269188",43.111627581636,12.3886194926919,0,"Palazzo dei Priori, Corso Vannucci, 06122 Perugia PG, Italia",43.11162135,12.388462680654165,Palazzo dei Priori,,Corso Vannucci,06122,Elce,Sant'Erminio,Perugia,Perugia,PG,Umbria,UMB,Italia,it,© OpenStreetMap contributors,Open Database License,https://www.openstreetmap.org/copyright
Comune Potenza,"40.6393754135464, 15.80520649367874",40.6393754135464,15.8052064936787,0,"Comune di Potenza, Via San Luca, 85100 Potenza PZ, Italia",40.639490800000004,15.805341191546088,Comune di Potenza,,Via San Luca,85100,,Santa Croce,Potenza,Potenza,PZ,Basilicata,BAS,Italia,it,© OpenStreetMap contributors,Open Database License,https://www.openstreetmap.org/copyright
Comune San Vincenzo,"43.10058444658365, 10.53836772604082",43.1005844465837,10.5383677260408,12.853061913132878,"Via Alliata, 6, 57027 San Vincenzo, Italia",43.100626,10.53822,,6,Via Alliata,57027,Comune di San Vincenzo,,San Vincenzo,,,Livorno,,Italia,it,© OpenAddresses contributors,BSD-3-Clause License,
Comune Sorrento,"40.62696546496384, 14.374940768186978",40.6269654649638,14.374940768187,2.63593279817894,"Comune di Sorrento, Piazza Sant'Antonino, 1, 80067 Sorrento NA, Italia",40.6269423,14.3749474,Comune di Sorrento,1,Piazza Sant'Antonino,80067,Parsano,Marina Piccola,Sorrento,Napoli,NA,Campania,CAM,Italia,it,© OpenStreetMap contributors,Open Database License,https://www.openstreetmap.org/copyright
Comune Trieste,"45.64940444467243, 13.76850745260358",45.6494044446724,13.7685074526036,0,"Palazzo del Municipio, Via della Procureria, 34121 Trieste/Trst Trieste, Italia",45.64942465,13.76841124355175,Palazzo del Municipio,,Via della Procureria,34121,Cavana,Città Nuova-Barriera Nuova-San Vito-Città Vecchia,Trieste/Trst,Trieste,TS,Friuli-Venezia Giulia,,Italia,it,© OpenStreetMap contributors,Open Database License,https://www.openstreetmap.org/copyright
Comune Vieste,"41.8826821792218, 16.179652425913652",41.8826821792218,16.1796524259137,0,"Municipio di Vieste, Corso Lorenzo Fazzini, 71019 Vieste FG, Italia",41.88245635,16.17940848125889,Municipio di Vieste,,Corso Lorenzo Fazzini,71019,,,Vieste,Foggia,FG,Puglia,PUG,Italia,it,© OpenStreetMap contributors,Open Database License,https://www.openstreetmap.org/copyright
Consorzio DMO Dolomiti,"46.137499682118616, 12.217851668439712",46.1374996821186,12.2178516684397,0,"Palazzo Piloni, Piazza del Duomo, 32100 Belluno BL, Italia",46.13747805,12.217727043914852,Palazzo Piloni,,Piazza del Duomo,32100,Borgo Piave,,Belluno,Belluno,BL,Veneto,VEN,Italia,it,© OpenStreetMap contributors,Open Database License,https://www.openstreetmap.org/copyright
CONVENTION BUREAU DELLA RIVIERA DI RIMINI (divisione di Italian Exhibition Group),"44.05054, 12.56636",44.05054,12.56636,0,"Palacongressi di Rimini, Via della Fiera, 47900 Rimini RN, Italia",44.050534,12.567066166324807,Palacongressi di Rimini,,Via della Fiera,47900,San Giovanni,,Rimini,Rimini,RN,Emilia-Romagna,EMI,Italia,it,© OpenStreetMap contributors,Open Database License,https://www.openstreetmap.org/copyright
Convention Bureau Genova,"44.408463051862576, 8.921776688975452",44.4084630518626,8.92177668897545,0,"Magazzini del Cotone, Calata Molo Vecchio Luigi Durand De La Penne, 15, 16100 Genova GE, Italia",44.408519,8.9217735,Magazzini del Cotone,15,Calata Molo Vecchio Luigi Durand De La Penne,16100,Sottoripa,Centro Est,Genova,Genova,GE,Liguria,LIG,Italia,it,© OpenStreetMap contributors,Open Database License,https://www.openstreetmap.org/copyright
Convention Bureau Pisa,"43.68594481814655, 10.429521552229254",43.6859448181466,10.4295215522293,24.189282085151955,"Via Marmiceto, 3, 56120 Pisa Provincia di Pisa, Italia",43.686161,10.429488,,3,Via Marmiceto,56120,Comune di Pisa,,Pisa,Provincia di Pisa,,Toscana,TOS,Italia,it,© OpenAddresses contributors,BSD-3-Clause License,
Convention Bureau Roma & Lazio,"41.89840246050789, 12.499712795383982",41.8984024605079,12.499712795384,5.008215729401241,"Via Farini, 62, 00185 Roma Roma, Italia",41.898365,12.4996792,,62,Via Farini,00185,Roma,Municipio Roma I,Roma,Roma,RM,Lazio,LAZ,Italia,it,© OpenStreetMap contributors,Open Database License,https://www.openstreetmap.org/copyright
Cooperativa Turistica Alta Badia,"46.549647316457445, 11.87409899810273",46.5496473164574,11.8740989981027,9.57241789302609,"Str. Col Alt, 36, 39033 Corvara in Val Badia BZ, Italia",46.5497,11.874,,36,Str. Col Alt,39033,Comune di Corvara in Badia,,Corvara in Val Badia,Bolzano,BZ,Trentino-Alto Adige/Sudtirol,,Italia,it,© OpenAddresses contributors,BSD-3-Clause License,
Destination Florence CVB,"43.770615423163775, 11.243581775211752",43.7706154231638,11.2435817752118,0,"Granaio dell'Abbondanza, Piazza di Cestello, 10, 50100 Firenze FI, Italia",43.7705987,11.2435688,Granaio dell'Abbondanza,10,Piazza di Cestello,50100,San Frediano,Quartiere 1,Firenze,Firenze,FI,Toscana,TOS,Italia,it,© OpenStreetMap contributors,Open Database License,https://www.openstreetmap.org/copyright
Destinazione Sila,"39.24608476338309, 16.529034541472715",39.2460847633831,16.5290345414727,823.5735522780435,"Localita' Rovale, 23, 87055 San Giovanni In Fiore CS, Italia",39.252429,16.53397,,23,Localita' Rovale,87055,,,San Giovanni In Fiore,Cosenza,CS,Calabria,CAL,Italia,it,© OpenAddresses contributors,BSD-3-Clause License,
Destinazione Turistica Emilia,"44.79503366098846, 10.331183942051329",44.7950336609885,10.3311839420513,0,"Palazzo Giordani, Via Nervesa, 43121 Parma PR, Italia",44.79493855,10.331382948486084,Palazzo Giordani,,Via Nervesa,43121,,Cittadella,Parma,Parma,PR,Emilia-Romagna,EMI,Italia,it,© OpenStreetMap contributors,Open Database License,https://www.openstreetmap.org/copyright
Destinazione Turistica Romagna,"44.07185804620219, 12.577253339506258",44.0718580462022,12.5772533395063,7.283858874958756,"Via Saint-Maur De Fosses, 18, 47921 Rimini RN, Italia",44.071837,12.577167,,18,Via Saint-Maur De Fosses,47921,Rimini,,Rimini,Rimini,RN,Emilia-Romagna,EMI,Italia,it,© OpenAddresses contributors,BSD-3-Clause License,
Distretto Turistico della Sicilia Occidentale,"38.017589979715936, 12.526122183419284",38.0175899797159,12.5261221834193,0.6238174668347474,"Via Mafalda di Savoia, 91100 Trapani TP, Italia",38.016612,12.5262945,Via Mafalda di Savoia,,Via Mafalda di Savoia,91100,,,Trapani,Trapani,TP,Sicilia,SIC,Italia,it,© OpenStreetMap contributors,Open Database License,https://www.openstreetmap.org/copyright
DMC Marsica,"42.036584416203425, 13.420925339494254",42.0365844162034,13.4209253394943,24.22898659665726,"Via Monte Velino, 65a, 67051 Avezzano Provincia dell’Aquila, Italia",42.036614,13.421216,,65a,Via Monte Velino,67051,Comune di Avezzano,,Avezzano,Provincia dell’Aquila,,Abruzzo,ABR,Italia,it,© OpenAddresses contributors,BSD-3-Clause License,
DMO Caorle,"45.597975465416795, 12.88761922608523",45.5979754654168,12.8876192260852,0,"Comune di Caorle, Piazza Municipio, 30021 Caorle VE, Italia",45.5979183,12.887625390534525,Comune di Caorle,,Piazza Municipio,30021,,,Caorle,Venezia,VE,Veneto,VEN,Italia,it,© OpenStreetMap contributors,Open Database License,https://www.openstreetmap.org/copyright
DMO Distretto Turistico Valle dei Templi,"37.30465118813196, 13.59605762586912",37.304651188132,13.5960576258691,10.533247677007422,"Viale Della Vittoria, 309, 92100 Agrigento AG, Italia",37.304666,13.59594,,309,Viale Della Vittoria,92100,Comune di Agrigento,,Agrigento,Agrigento,AG,Sicilia,SIC,Italia,it,© OpenAddresses contributors,BSD-3-Clause License,
DMO Francigena sud nel Lazio,"41.72674335033728, 12.66133716889845",41.7267433503373,12.6613371688985,0.867395785354357,"Viale Luciano Scalchi, 00041 Albano Laziale Roma, Italia",41.7267699,12.6613739,Viale Luciano Scalchi,,Viale Luciano Scalchi,00041,,,Albano Laziale,Roma,RM,Lazio,LAZ,Italia,it,© OpenStreetMap contributors,Open Database License,https://www.openstreetmap.org/copyright
DMO Lago di Garda,"45.43197410812603, 10.98799559729728",45.431974108126,10.9879955972973,1.80582003142141,"Camera di Commercio di Verona, Corso Porta Nuova, 96, 37122 Verona VR, Italia",45.4320461,10.987906275356277,Camera di Commercio di Verona,96,Corso Porta Nuova,37122,,San Zeno,Verona,Verona,VR,Veneto,VEN,Italia,it,© OpenStreetMap contributors,Open Database License,https://www.openstreetmap.org/copyright
DMO Terre di Otium - Associazione Tivoli e la Valle dell'Aniene,"41.96348821593591, 12.798766596338977",41.9634882159359,12.798766596339,5.948844716090585,"Piazza del Governo, 1, 00019 Tivoli Roma, Italia",41.9635244,12.7987136,,1,Piazza del Governo,00019,,,Tivoli,Roma,RM,Lazio,LAZ,Italia,it,© OpenStreetMap contributors,Open Database License,https://www.openstreetmap.org/copyright
DMO Terre di Pisa,"43.71093776140631, 10.399658143132235",43.7109377614063,10.3996581431322,0,"Camera di Commercio, Piazza Vittorio Emanuele II, 56125 Pisa PI, Italia",43.710928749999994,10.399763355891611,Camera di Commercio,,Piazza Vittorio Emanuele II,56125,Sant'Antonio,San Giusto,Pisa,Pisa,PI,Toscana,TOS,Italia,it,© OpenStreetMap contributors,Open Database License,https://www.openstreetmap.org/copyright
Dolomites Val Gardena,"46.55820669801103, 11.720875720680517",46.558206698011,11.7208757206805,11.976752934894131,"Strada Dursan, 16, 39047 Santa Cristina Valgardena BZ, Italia",46.558108,11.720813,,16,Strada Dursan,39047,Comune di Santa Cristina Valgardena,,Santa Cristina Valgardena,Bolzano,BZ,Trentino-Alto Adige/Sudtirol,,Italia,it,© OpenAddresses contributors,BSD-3-Clause License,
Ente turismo Langhe Monferrato Roero,"44.70098160502145, 8.036034797207055",44.7009816050214,8.03603479720705,2.617734059670492,"ATL Alba Bra Langhe e Roero, Piazza Risorgimento, 2, 12051 Alba CN, Italia",44.7010046,8.0360277,ATL Alba Bra Langhe e Roero,2,Piazza Risorgimento,12051,Comune di Alba,,Alba,Cuneo,CN,Piemonte,PIE,Italia,it,© OpenStreetMap contributors,Open Database License,https://www.openstreetmap.org/copyright
Fiemme Valle Viva,"46.290062606539756, 11.464722297282758",46.2900626065398,11.4647222972828,0,"Auditorium PalaFiemme, Via Gioacchino Rossini, 38033 Cavalese TN, Italia",46.28988455,11.464877529013506,Auditorium PalaFiemme,,Via Gioacchino Rossini,38033,,,Cavalese,Provincia di Trento,,Trentino-Alto Adige,TRE,Italia,it,© OpenStreetMap contributors,Open Database License,https://www.openstreetmap.org/copyright
Garda Trentino,"45.88494679363624, 10.844988120152225",45.8849467936362,10.8449881201522,0,"Garda Dolomiti Azienda per il turismo S.p.A., Largo Medaglie d'Oro al Valor Militare, 5, 38066 Riva del Garda TN, Italia",45.884770700000004,10.84494204351295,Garda Dolomiti Azienda per il turismo S.p.A.,5,Largo Medaglie d'Oro al Valor Militare,38066,,,Riva del Garda,Provincia di Trento,,Trentino-Alto Adige,TRE,Italia,it,© OpenStreetMap contributors,Open Database License,https://www.openstreetmap.org/copyright
IDM Südtirol - Alto Adige,"46.4978475935917, 11.353347027111525",46.4978475935917,11.3533470271115,2.026501196013902,"Piazza della Parrocchia, 12, 39100 Bolzano BZ, Italia",46.4978516,11.3533212,,12,Piazza della Parrocchia,39100,Bolzano,Centro Storico,Bolzano,Bolzano,BZ,Trentino-Alto Adige,TRE,Italia,it,© OpenStreetMap contributors,Open Database License,https://www.openstreetmap.org/copyright
in Liguria - Agenzia Regionale per la Promozione turistica,"44.40484500000011, 8.9357238294465",44.4048450000001,8.9357238294465,0,"Torre Piacentini, Via Gabriele D'Annunzio, 16128 Genova GE, Italia",44.40481395,8.935847064871663,Torre Piacentini,,Via Gabriele D'Annunzio,16128,Sant'Andrea,Centro Est,Genova,Genova,GE,Liguria,LIG,Italia,it,© OpenStreetMap contributors,Open Database License,https://www.openstreetmap.org/copyright
Island of Sicily D.M.O. S.R.L.,"38.47035032144923, 14.954622986988811",38.4703503214492,14.9546229869888,14.993774396789677,"Servizio Spiagge Luana, Corso Vittorio Emanuele, 240, 98055 Lipari ME, Italia",38.4702179,14.9545905,Servizio Spiagge Luana,240,Corso Vittorio Emanuele,98055,,,Lipari,Messina,ME,Sicilia,SIC,Italia,it,© OpenStreetMap contributors,Open Database License,https://www.openstreetmap.org/copyright
Jesolo Eraclea,"45.50230317910575, 12.632877539629364",45.5023031791058,12.6328775396294,0,"Condominio Europa, Via Aquileia, 107, 30016 Jesolo VE, Italia",45.5022855,12.6328589,Condominio Europa,107,Via Aquileia,30016,,,Jesolo,Venezia,VE,Veneto,VEN,Italia,it,© OpenStreetMap contributors,Open Database License,https://www.openstreetmap.org/copyright
La Riviera d'Ulisse - Ente Turistico di Terzo Settore,"41.453722779263046, 12.870955497143207",41.453722779263,12.8709554971432,0,"Largo Italo Montemezzi, Viale Niccolò Paganini, 04100 Latina LT, Italia",41.45313515,12.87094450793338,Largo Italo Montemezzi,,Viale Niccolò Paganini,04100,,Nuova Latina,Latina,Latina,LT,Lazio,LAZ,Italia,it,© OpenStreetMap contributors,Open Database License,https://www.openstreetmap.org/copyright
Lake Como Convention Bureau,"45.83939870293031, 9.07447760000085",45.8393987029303,9.07447760000085,2.900989257106765,"Largo Luchino Visconti, 22026 Olzino CO, Italia",45.8393245,9.0744425,Largo Luchino Visconti,,Largo Luchino Visconti,22026,,Sant'Andrea,Olzino,Como,CO,Lombardia,LOM,Italia,it,© OpenStreetMap contributors,Open Database License,https://www.openstreetmap.org/copyright
Latium Experience,"41.46763581869974, 12.903192954814445",41.4676358186997,12.9031929548144,0,"Comune di Latina, Via Guglielmo Oberdan, 04100 Latina LT, Italia",41.46806275,12.903381068023915,Comune di Latina,,Via Guglielmo Oberdan,04100,,Goretti,Latina,Latina,LT,Lazio,LAZ,Italia,it,© OpenStreetMap contributors,Open Database License,https://www.openstreetmap.org/copyright
Lignano Sabbiadoro Gestioni S.p.A.,"45.691470844453946, 13.1439385960783",45.6914708444539,13.1439385960783,4.706918754494993,"Enoteca Farmacia dei Sani, Via Latisana, 44a, 33054 Lignano Sabbiadoro Udine, Italia",45.6914388,13.143899,Enoteca Farmacia dei Sani,44a,Via Latisana,33054,Comune di Lignano Sabbiadoro,,Lignano Sabbiadoro,Udine,UD,Friuli-Venezia Giulia,,Italia,it,© OpenStreetMap contributors,Open Database License,https://www.openstreetmap.org/copyright
Madonie e Targa Florio,"37.789134004051796, 14.038553744867759",37.7891340040518,14.0385537448678,15.292011168210568,"Viale Risorgimento, 13, 90020 Castellana Sicula PA, Italia",37.78926,14.038484,,13,Viale Risorgimento,90020,Comune di Castellana Sicula,,Castellana Sicula,Palermo,PA,Sicilia,SIC,Italia,it,© OpenAddresses contributors,BSD-3-Clause License,
Madonna di Campiglio Azienda per il Turismo S.p.A.,"46.23310658712886, 10.826253239207524",46.2331065871289,10.8262532392075,6.68170544228907,"Via Torre Del Brenta, 8, 38086 Comune di Pinzolo Trento, Italia",46.233095,10.826168,,8,Via Torre Del Brenta,38086,,,Comune di Pinzolo,Trento,TN,Trentino-Alto Adige/Sudtirol,,Italia,it,© OpenAddresses contributors,BSD-3-Clause License,
Marca Treviso Convention Bureau,"45.663921700000515, 12.245787458887635",45.6639217000005,12.2457874588876,1.285551629977998,"Piazza della Borsa, 4, 31100 Treviso TV, Italia",45.6639235,12.2458038,,4,Piazza della Borsa,31100,,San Zeno,Treviso,Treviso,TV,Veneto,VEN,Italia,it,© OpenStreetMap contributors,Open Database License,https://www.openstreetmap.org/copyright
MEET Alto Adige,"46.49526965095487, 11.354677414938456",46.4952696509549,11.3546774149385,0,"Camera di Commercio, Via Alto Adige, 60, 39100 Bolzano BZ, Italia",46.49545845,11.354812141315538,Camera di Commercio,60,Via Alto Adige,39100,,Centro Storico,Bolzano,Bolzano,BZ,Trentino-Alto Adige,TRE,Italia,it,© OpenStreetMap contributors,Open Database License,https://www.openstreetmap.org/copyright
Milano & Partners,"45.46554820364616, 9.183961768463236",45.4655482036462,9.18396176846324,0,"Palazzo Turati, Via Meravigli, 7, 20121 Milano MI, Italia",45.4657967,9.1838338,Palazzo Turati,7,Via Meravigli,20121,,Municipio 1,Milano,Milano,MI,Lombardia,LOM,Italia,it,© OpenStreetMap contributors,Open Database License,https://www.openstreetmap.org/copyright
Montagna Veneta,"45.87260306925872, 11.506838227998024",45.8726030692587,11.506838227998,0,"Ex stazione ferroviaria Società Veneta, Ex ferrovia Rocchette-Asiago, 36012 Asiago VI, Italia",45.8725842,11.506716560068988,Ex stazione ferroviaria Società Veneta,,Ex ferrovia Rocchette-Asiago,36012,,,Asiago,Vicenza,VI,Veneto,VEN,Italia,it,© OpenStreetMap contributors,Open Database License,https://www.openstreetmap.org/copyright
Napoli Convention Bureau,"40.84149632887556, 14.250939212445044",40.8414963288756,14.250939212445,1.1274056022963923,"Via Miguel Cervantes de Savedra, 64, 80133 Napoli NA, Italia",40.8414929,14.2509266,,64,Via Miguel Cervantes de Savedra,80133,Rione Carità,Municipalità 2,Napoli,Napoli,NA,Campania,CAM,Italia,it,© OpenStreetMap contributors,Open Database License,https://www.openstreetmap.org/copyright
"OGD Chioggia: storia, mare e laguna","45.21850680052402, 12.27730741641212",45.218506800524,12.2773074164121,3.8164964881769734,"Calle San Cristoforo, 30015 Chioggia VE, Italia",45.2184943,12.2768951,Calle San Cristoforo,,Calle San Cristoforo,30015,,Sottomarina,Chioggia,Venezia,VE,Veneto,VEN,Italia,it,© OpenStreetMap contributors,Open Database License,https://www.openstreetmap.org/copyright
OGD Venezia,"45.435576912511046, 12.33298912464345",45.435576912511,12.3329891246435,2.9293296419309423,"San Marco, 3980, 30124 Venezia VE, Italia",45.435596,12.333015,,3980,San Marco,30124,Comune di Venezia,San Marco,Venezia,Venezia,VE,Veneto,VEN,Italia,it,© OpenAddresses contributors,BSD-3-Clause License,
Padova,"45.40709501442902, 11.876735226131608",45.407095014429,11.8767352261316,0,"Palazzo Moroni, Via Guglielmo Oberdan, 35149 Padova PD, Italia",45.40717085,11.876732013240918,Palazzo Moroni,,Via Guglielmo Oberdan,35149,,San Giuseppe,Padova,Padova,PD,Veneto,VEN,Italia,it,© OpenStreetMap contributors,Open Database License,https://www.openstreetmap.org/copyright
Padova Convention,"45.409496118436245, 11.875760029673126",45.4094961184362,11.8757600296731,5.447420929738708,"Camera di Commercio di Padova, Piazza dell'Insurrezione 28 Aprile 1945, 1a, 35137 Padova PD, Italia",45.4095407,11.8757311,Camera di Commercio di Padova,1a,Piazza dell'Insurrezione 28 Aprile 1945,35137,Comune di Padova,San Giuseppe,Padova,Padova,PD,Veneto,VEN,Italia,it,© OpenStreetMap contributors,Open Database License,https://www.openstreetmap.org/copyright
Palermo Welcome,"38.11705856155115, 13.369491396916366",38.1170585615511,13.3694913969164,0,"Palazzo Galletti, Piazza Marina, 46, 90133 Palermo PA, Italia",38.11696545,13.369544227562258,Palazzo Galletti,46,Piazza Marina,90133,Kalsa,I Circoscrizione,Palermo,Palermo,PA,Sicilia,SIC,Italia,it,© OpenStreetMap contributors,Open Database License,https://www.openstreetmap.org/copyright
Pedemontana veneta e colli,"45.705320879108804, 11.479321154979008",45.7053208791088,11.479321154979,3.289535222310661,"Piazza Giovanni Rossi, 26, 36016 Thiene VI, Italia",45.705349,11.479308,,26,Piazza Giovanni Rossi,36016,Comune di Thiene,,Thiene,Vicenza,VI,Veneto,VEN,Italia,it,© OpenAddresses contributors,BSD-3-Clause License,
Pisa Is,"43.715475369938765, 10.40129806839389",43.7154753699388,10.4012980683939,0,"Comune di Pisa, Via degli Uffizi, 56125 Pisa PI, Italia",43.71541025,10.401006244814539,Comune di Pisa,,Via degli Uffizi,56125,Sant'Antonio,San Giusto,Pisa,Pisa,PI,Toscana,TOS,Italia,it,© OpenStreetMap contributors,Open Database License,https://www.openstreetmap.org/copyright
Po e suo Delta,"45.02047595987483, 12.228137747561266",45.0204759598748,12.2281377475613,2.17520693802624,"45014 Porto Viro RO, Italia",45.0202741,12.228093,,,,45014,,,Porto Viro,Rovigo,RO,Veneto,VEN,Italia,it,© OpenStreetMap contributors,Open Database License,https://www.openstreetmap.org/copyright
Pro Loco Panza Isola di Ischia,"40.71746777463734, 13.865466754786828",40.7174677746373,13.8654667547868,39.642854548833085,"Park Hotel Terme Mediterraneo, Forio, Napoli, Italia",40.71715,13.86568,Park Hotel Terme Mediterraneo,,,,Comune di Forio,,Forio,Napoli,NA,Campania,CAM,Italia,it,GeoNames,CC BY 4.0,https://www.geonames.org/datasources/
PromoTurismoFVG,"45.82209903730501, 13.36832108347803",45.822099037305,13.368321083478,12.20179093276507,"Villa Chiozza, Via Carso, 3, 33052 Cervignano del Friuli Udine, Italia",45.8219905,13.3682979,Villa Chiozza,3,Via Carso,33052,Comune di Cervignano del Friuli,,Cervignano del Friuli,Udine,UD,Friuli-Venezia Giulia,,Italia,it,© OpenStreetMap contributors,Open Database License,https://www.openstreetmap.org/copyright
PugliaPromozione,"41.13646002881845, 16.838155425367177",41.1364600288184,16.8381554253672,2.895489313756247,"Fiera del Levante, 70123 Bari BA, Italia",41.13646,16.83819,Fiera del Levante,,,70123,Comune di Bari,,Bari,Bari,BA,Puglia,PUG,Italia,it,GeoNames,CC BY 4.0,https://www.geonames.org/datasources/
Regione Abruzzo,"42.36607953328389, 13.373920968263905",42.3660795332839,13.3739209682639,0,"Palazzo Silone, Via Leonardo da Vinci, 6, 67100 L'Aquila AQ, Italia",42.365814400000005,13.374276790275314,Palazzo Silone,6,Via Leonardo da Vinci,67100,Contrada Romani,Pettino,L'Aquila,L'Aquila,AQ,Abruzzo,ABR,Italia,it,© OpenStreetMap contributors,Open Database License,https://www.openstreetmap.org/copyright
"Regione Autonoma della Sardegna - Direzione generale del turismo, artigianato e commercio","39.220560414981605, 9.103561196962344",39.2205604149816,9.10356119696234,1.5374989814751319,"Viale Trieste, 105a, 09123 Cagliari CA, Italia",39.2205674,9.1035766,,105a,Viale Trieste,09123,Comune di Cagliari,Sant'Avendrace-Santa Gilla,Cagliari,Cagliari,CA,Sardegna,SAR,Italia,it,© OpenStreetMap contributors,Open Database License,https://www.openstreetmap.org/copyright
Regione Calabria,"38.85552383444799, 16.57485196811133",38.855523834448,16.5748519681113,2.580833606033783,"Viale Europa, 88100 Catanzaro CZ, Italia",38.8564817,16.5741919,Viale Europa,,Viale Europa,88100,,,Catanzaro,Catanzaro,CZ,Calabria,CAL,Italia,it,© OpenStreetMap contributors,Open Database License,https://www.openstreetmap.org/copyright
Regione Lazio,"41.8595763505534, 12.494237608220336",41.8595763505534,12.4942376082203,0,"Regione Lazio, Via Maria Drago Mazzini, 00147 Roma Roma, Italia",41.8589212,12.495005572708482,Regione Lazio,,Via Maria Drago Mazzini,00147,,Municipio Roma VIII,Roma,Roma,RM,Lazio,LAZ,Italia,it,© OpenStreetMap contributors,Open Database License,https://www.openstreetmap.org/copyright
Regione Molise,"41.55930345118881, 14.654637297063617",41.5593034511888,14.6546372970636,0,"Regione Molise Presidenza - Palazzo Vitale, Via Guerrino Jezza, 86100 Campobasso CB, Italia",41.559329649999995,14.654500654457419,Regione Molise Presidenza - Palazzo Vitale,,Via Guerrino Jezza,86100,,,Campobasso,Campobasso,CB,Molise,MOL,Italia,it,© OpenStreetMap contributors,Open Database License,https://www.openstreetmap.org/copyright
"Regione Siciliana - Dipartimento del turismo, dello sport e dello spettacolo","38.133293240653174, 13.347579225859992",38.1332932406532,13.34757922586,0.4817825418593019,"Via Emanuele Notarbartolo, 9, 90144 Palermo PA, Italia",38.1333647,13.34767589476791,,9,Via Emanuele Notarbartolo,90144,Comune di Palermo,VIII Circoscrizione,Palermo,Palermo,PA,Sicilia,SIC,Italia,it,© OpenStreetMap contributors,Open Database License,https://www.openstreetmap.org/copyright
Regione Umbria,"43.10962097914845, 12.387983697205767",43.1096209791485,12.3879836972058,5.263669107735145,"Corso Vannucci, 103, 06121 Perugia PG, Italia",43.109593,12.388036,,103,Corso Vannucci,06121,Comune di Perugia,,Perugia,Perugia,PG,Umbria,UMB,Italia,it,© OpenAddresses contributors,BSD-3-Clause License,
Regione Veneto - Direzione Turismo,"45.44240912384582, 12.323647698245507",45.4424091238458,12.3236476982455,0,"Palazzo Sceriman, Calle Gioacchina, 30121 Venezia VE, Italia",45.44270795,12.323579580703365,Palazzo Sceriman,,Calle Gioacchina,30121,Cannaregio,Venezia-Murano-Burano,Venezia,Venezia,VE,Veneto,VEN,Italia,it,© OpenStreetMap contributors,Open Database License,https://www.openstreetmap.org/copyright
Rimini Welcome,"44.063834418165385, 12.574118829448537",44.0638344181654,12.5741188294485,0,"Stazione di Rimini, Piazzale Cesare Battisti, 3, 47921 Rimini RN, Italia",44.0637787,12.5741206,Stazione di Rimini,3,Piazzale Cesare Battisti,47921,San Giuliano,,Rimini,Rimini,RN,Emilia-Romagna,EMI,Italia,it,© OpenStreetMap contributors,Open Database License,https://www.openstreetmap.org/copyright
Riviera dei Borghi Acquaviva Scarl,"42.60723487227335, 14.067740327869446",42.6072348722734,14.0677403278694,0,"Villa Filiani, Via Gabriele D'Annunzio, 64025 Pineto TE, Italia",42.607242049999996,14.067640347522937,Villa Filiani,,Via Gabriele D'Annunzio,64025,,Villa Ardente,Pineto,Teramo,TE,Abruzzo,ABR,Italia,it,© OpenStreetMap contributors,Open Database License,https://www.openstreetmap.org/copyright
Riviera del Brenta & Terra dei Tiepolo,"45.4259643896427, 12.074274997297024",45.4259643896427,12.074274997297,0,"Comune di Dolo, Piazza Municipio, 30031 Dolo VE, Italia",45.42595695,12.074260993099525,Comune di Dolo,,Piazza Municipio,30031,,,Dolo,Venezia,VE,Veneto,VEN,Italia,it,© OpenStreetMap contributors,Open Database License,https://www.openstreetmap.org/copyright
Riviere di Liguria - azienda speciale della CCIAA,"44.30895290172585, 8.484244126024372",44.3089529017259,8.48424412602437,6.58324796756493,"Via Quarda inferiore, 24r, 17100 Savona SV, Italia",44.3089636,8.4843255,,24r,Via Quarda inferiore,17100,Comune di Savona,Villetta,Savona,Savona,SV,Liguria,LIG,Italia,it,© OpenStreetMap contributors,Open Database License,https://www.openstreetmap.org/copyright
"Roma Capitale, Direzione Turismo","41.904978779219995, 12.489904497078953",41.90497877922,12.489904497079,2.0355439360515484,"San Basilio agli Orti Sallustiani, Via di San Basilio, 00187 Roma Roma, Italia",41.904896750000006,12.489886494635705,San Basilio agli Orti Sallustiani,,Via di San Basilio,00187,Roma,Municipio Roma I,Roma,Roma,RM,Lazio,LAZ,Italia,it,© OpenStreetMap contributors,Open Database License,https://www.openstreetmap.org/copyright
Rovigo Convention & Visitors Bureau,"45.05309872053284, 11.78611693587438",45.0530987205328,11.7861169358744,39.318009478879986,"Florgas Sas, Via del Lavoro, 4, 45100 Rovigo RO, Italia",45.053452,11.7860958,Florgas Sas,4,Via del Lavoro,45100,Comune di Rovigo,,Rovigo,Rovigo,RO,Veneto,VEN,Italia,it,© OpenStreetMap contributors,Open Database License,https://www.openstreetmap.org/copyright
Skirama Kronplatz / Plan de Corones,"46.785064662743316, 11.921821748917573",46.7850646627433,11.9218217489176,0,"BusinessPark ZUKUNFT, Via J.G. Mahl, 40, 39031 Brunico BZ, Italia",46.785162,11.9217189932435,BusinessPark ZUKUNFT,40,Via J.G. Mahl,39031,,Bruneck - Brunico,Brunico,Bolzano,BZ,Trentino-Alto Adige,TRE,Italia,it,© OpenStreetMap contributors,Open Database License,https://www.openstreetmap.org/copyright
Sorrento Convention Bureau,"40.6249387402583, 14.377396113478047",40.6249387402583,14.377396113478,7.07260679445403,"Via Fuorimura, 80067 Sorrento NA, Italia",40.6249969,14.37776,Via Fuorimura,,Via Fuorimura,80067,Parsano,Santa Lucia,Sorrento,Napoli,NA,Campania,CAM,Italia,it,© OpenStreetMap contributors,Open Database License,https://www.openstreetmap.org/copyright
Terme e Colli Euganei,"45.35447550040167, 11.772595254964846",45.3544755004017,11.7725952549648,37.85469348897369,"Via Monteortone, 19, 35031 Abano Terme PD, Italia",45.354739,11.772902,,19,Via Monteortone,35031,Comune di Abano Terme,,Abano Terme,Padova,PD,Veneto,VEN,Italia,it,© OpenAddresses contributors,BSD-3-Clause License,
Terre di Siena Convention Bureau,"43.317950935843065, 11.332031519064106",43.3179509358431,11.3320315190641,0,"Palazzo Pubblico, Via di Salicotto, 53100 Siena SI, Italia",43.31799695,11.332012987233671,Palazzo Pubblico,,Via di Salicotto,53100,,Centro Storico Medievale,Siena,Siena,SI,Toscana,TOS,Italia,it,© OpenStreetMap contributors,Open Database License,https://www.openstreetmap.org/copyright
Terre Pescaresi,"42.306847582747814, 14.06166052778254",42.3068475827478,14.0616605277825,10.572364597130639,"Municipio, Via Andrea Costa, 68022 Manoppello PE, Italia",42.3067602,14.0617112,Municipio,,Via Andrea Costa,68022,Comune di Manoppello,Manoppello Scalo,Manoppello,Pescara,PE,Abruzzo,ABR,Italia,it,© OpenStreetMap contributors,Open Database License,https://www.openstreetmap.org/copyright
Terre vicentine,"45.542353264824975, 11.509534626137132",45.542353264825,11.5095346261371,0,"Camera di Commercio, Industria, Artigianato e Agricoltura, Via Eugenio Montale, 27, 36100 Vicenza VI, Italia",45.54232855,11.50947345,"Camera di Commercio, Industria, Artigianato e Agricoltura",27,Via Eugenio Montale,36100,,Pomari,Vicenza,Vicenza,VI,Veneto,VEN,Italia,it,© OpenStreetMap contributors,Open Database License,https://www.openstreetmap.org/copyright
Toscana Promozione Turistica,"43.79038295190224, 11.257233981195562",43.7903829519022,11.2572339811956,0,"Villa Fabbricotti, Via Trieste, 50199 Firenze FI, Italia",43.79057225,11.257377431564564,Villa Fabbricotti,,Via Trieste,50199,Statuto,Quartiere 5,Firenze,Firenze,FI,Toscana,TOS,Italia,it,© OpenStreetMap contributors,Open Database License,https://www.openstreetmap.org/copyright
Tre Cime Dolomiti,"46.73114758077672, 12.329630200000295",46.7311475807767,12.3296302000003,1.0154700600135884,"Gröberhütte, Via Ombrosa, 39038 San Candido BZ, Italia",46.7311872,12.329528700000001,Gröberhütte,,Via Ombrosa,39038,,Vierschach,San Candido,Bolzano,BZ,Trentino-Alto Adige,TRE,Italia,it,© OpenStreetMap contributors,Open Database License,https://www.openstreetmap.org/copyright
Trentino Marketing,"46.07373949115495, 11.121791204881385",46.073739491155,11.1217912048814,0,"Centro Europa, Via Gian Domenico Romagnosi, 11, 38122 Trento TN, Italia",46.0738029,11.1217709,Centro Europa,11,Via Gian Domenico Romagnosi,38122,,San Martino,Trento,Provincia di Trento,,Trentino-Alto Adige,TRE,Italia,it,© OpenStreetMap contributors,Open Database License,https://www.openstreetmap.org/copyright
Trentino MICE Convention Bureau,"45.88403332607806, 10.845713643121373",45.8840333260781,10.8457136431214,0,"Centro congressi, Via H. Sudermann, 38066 Riva del Garda TN, Italia",45.88377405,10.84554991530679,Centro congressi,,Via H. Sudermann,38066,,,Riva del Garda,Provincia di Trento,,Trentino-Alto Adige,TRE,Italia,it,© OpenStreetMap contributors,Open Database License,https://www.openstreetmap.org/copyright
"Trento, Monte Bondone s.cons.a r.l.","46.07038018431259, 11.121142426127022",46.0703801843126,11.121142426127,1.6730402086810041,"APT Trento e Monte Bondone, Piazza Dante, 24, 38122 Trento TN, Italia",46.0703885,11.1211605,APT Trento e Monte Bondone,24,Piazza Dante,38122,Comune di Trento,Centro storico,Trento,Provincia di Trento,,Trentino-Alto Adige,TRE,Italia,it,© OpenStreetMap contributors,Open Database License,https://www.openstreetmap.org/copyright
Turismo Riviera dei Fiori,"43.88836698753472, 8.038709613180345",43.8883669875347,8.03870961318034,0,"Camera di Commercio, Via Giuseppe De Sonnaz, 18100 Imperia Provincia di Imperia, Italia",43.8885896,8.038667438507659,Camera di Commercio,,Via Giuseppe De Sonnaz,18100,,Oneglia,Imperia,Provincia di Imperia,,Liguria,LIG,Italia,it,© OpenStreetMap contributors,Open Database License,https://www.openstreetmap.org/copyright
Turismo Torino e Provincia s.c.r.l.,"45.06723374452309, 7.6864480242644655",45.0672337445231,7.68644802426447,2.892426440332781,"Via Maria Vittoria, 19, 10123 Torino Torino, Italia",45.0672111,7.6864299,,19,Via Maria Vittoria,10123,,Centro,Torino,Torino,TO,Piemonte,PIE,Italia,it,© OpenStreetMap contributors,Open Database License,https://www.openstreetmap.org/copyright
Val d'Ega Turismo Soc. Coop.,"46.43045677381271, 11.541667726173237",46.4304567738127,11.5416677261732,2.5062284973084523,"Via Dolomiti, 4, 39056 Nova Levante BZ, Italia",46.4304787,11.5416753,,4,Via Dolomiti,39056,Nova Levante,,Nova Levante,Bolzano,BZ,Trentino-Alto Adige,TRE,Italia,it,© OpenStreetMap contributors,Open Database License,https://www.openstreetmap.org/copyright
Valdichiana Living Tours & Vacation Tuscany,"43.09305781382427, 11.781047425968303",43.0930578138243,11.7810474259683,0,"Palazzo del Capitano, Via Ricci, 2, 53045 Montepulciano SI, Italia",43.0930405,11.7809259,Palazzo del Capitano,2,Via Ricci,53045,,Bivio San Biagio,Montepulciano,Siena,SI,Toscana,TOS,Italia,it,© OpenStreetMap contributors,Open Database License,https://www.openstreetmap.org/copyright
Valle d'Aosta - Ufficio Regionale del Turismo,"45.74231614266671, 7.323913464583649",45.7423161426667,7.32391346458365,0,"Parcheggio Consolata, Strada Consolata, 11100 Aosta, Italia",45.7422714,7.32413040146596,Parcheggio Consolata,,Strada Consolata,11100,,,Aosta,,,Valle d'Aosta,VAL,Italia,it,© OpenStreetMap contributors,Open Database License,https://www.openstreetmap.org/copyright
Varese Turismo,"45.81721120474522, 8.82530524894321",45.8172112047452,8.82530524894321,7.294015523823179,"Infopoint Varese, Piazza Monte Grappa, 5, 21100 Varese VA, Italia",45.8172702,8.8252641,Infopoint Varese,5,Piazza Monte Grappa,21100,Motta,Biumo Inferiore,Varese,Varese,VA,Lombardia,LOM,Italia,it,© OpenStreetMap contributors,Open Database License,https://www.openstreetmap.org/copyright
Verona,"45.43214727533043, 10.987523528563468",45.4321472753304,10.9875235285635,0,"Camera di Commercio di Verona, Corso Porta Nuova, 96, 37122 Verona VR, Italia",45.4320461,10.987906275356277,Camera di Commercio di Verona,96,Corso Porta Nuova,37122,,San Zeno,Verona,Verona,VR,Veneto,VEN,Italia,it,© OpenStreetMap contributors,Open Database License,https://www.openstreetmap.org/copyright
Vicenza Convention Bureau,"45.54236070530616, 11.509530337377164",45.5423607053062,11.5095303373772,0,"Camera di Commercio, Industria, Artigianato e Agricoltura, Via Eugenio Montale, 27, 36100 Vicenza VI, Italia",45.54232855,11.50947345,"Camera di Commercio, Industria, Artigianato e Agricoltura",27,Via Eugenio Montale,36100,,Pomari,Vicenza,Vicenza,VI,Veneto,VEN,Italia,it,© OpenStreetMap contributors,Open Database License,https://www.openstreetmap.org/copyright
Visit Brescia,"45.53433714037563, 10.218891496612851",45.5343371403756,10.2188914966129,11.253435800697012,"Via Luigi Einaudi, 22, 25121 Brescia BS, Italia",45.534397,10.218775,,22,Via Luigi Einaudi,25121,Comune di Brescia,,Brescia,Brescia,BS,Lombardia,LOM,Italia,it,© OpenAddresses contributors,BSD-3-Clause License,
Visit Castelli Romani,"41.711623400975334, 12.690560711392502",41.7116234009753,12.6905607113925,28.50213079409362,"Biblioteca Comunale ""Carlo Levi"", Viale Giuseppe Mazzini, 12, 00045 Genzano di Roma Roma, Italia",41.711999649999996,12.69068365,"Biblioteca Comunale ""Carlo Levi""",12,Viale Giuseppe Mazzini,00045,,,Genzano di Roma,Roma,RM,Lazio,LAZ,Italia,it,© OpenStreetMap contributors,Open Database License,https://www.openstreetmap.org/copyright
Visit Limone sul Garda,"45.813595666175765, 10.79182318065154",45.8135956661758,10.7918231806515,29.80740309648696,"Albergo Susy, Via Quattro Novembre, 46, 25010 Limone sul Garda BS, Italia",45.8136059,10.7922075,Albergo Susy,46,Via Quattro Novembre,25010,Comune di Limone sul Garda,,Limone sul Garda,Brescia,BS,Lombardia,LOM,Italia,it,© OpenStreetMap contributors,Open Database License,https://www.openstreetmap.org/copyright
Visit Piemonte,"45.07149945350246, 7.6781553167125995",45.0714994535025,7.6781553167126,30.333414233664826,"MathWorks Italia, Via Antonio Giuseppe Bertola, 34, 10122 Torino Torino, Italia",45.0713913,7.6778007,MathWorks Italia,34,Via Antonio Giuseppe Bertola,10122,Torino,Centro,Torino,Torino,TO,Piemonte,PIE,Italia,it,© OpenStreetMap contributors,Open Database License,https://www.openstreetmap.org/copyright
Visit Rovereto,"45.89122862198794, 11.040915914861689",45.8912286219879,11.0409159148617,0,"Poste Centrale, Largo Posta, 38068 Rovereto TN, Italia",45.89121085,11.040994358992998,Poste Centrale,,Largo Posta,38068,,Santa Maria,Rovereto,Provincia di Trento,,Trentino-Alto Adige,TRE,Italia,it,© OpenStreetMap contributors,Open Database License,https://www.openstreetmap.org/copyright
West of Sicily,"38.01759539430212, 12.52609030671987",38.0175953943021,12.5260903067199,2.0537270284891727,"Via Mafalda di Savoia, 91100 Trapani TP, Italia",38.016612,12.5262945,Via Mafalda di Savoia,,Via Mafalda di Savoia,91100,,,Trapani,Trapani,TP,Sicilia,SIC,Italia,it,© OpenStreetMap contributors,Open Database License,https://www.openstreetmap.org/copyright